City_ID,City,Latitude,Lng,Max Temp,Humidity,Cloudiness,Wind Speed
0,Bay Saint Louis,30.3088,-89.33,42.42,87,1,6.35
1,Ushuaia,-54.8,-68.3,42.8,75,75,16.11
2,Marsá Maţrūḩ,31.3525,27.2453,55.4,62,40,12.66
3,Bluff,-46.6,168.3333,54.09,74,0,15.3
4,Emerald,-23.5333,148.1667,94.57,24,75,9.22
5,Flinders,-34.5833,150.8552,81.18,76,56,1.01
6,Kysyl-Syr,63.8986,122.7617,-40.2,77,100,1.99
7,Khatanga,71.9667,102.5,-43.04,75,9,3.11
8,Clyde River,70.4692,-68.5914,-23.8,76,1,4.61
9,Butaritari,3.0707,172.7902,80.51,77,100,14.9
10,Punta Arenas,-53.15,-70.9167,46.2,81,90,13.8
11,Cape Town,-33.9258,18.4232,67.89,88,75,2.3
12,Xining,36.6167,101.7667,24.57,64,100,3.38
13,Goderich,43.7501,-81.7165,21.2,79,100,8.05
14,Barrow,71.2906,-156.7887,-11.2,70,90,8.05
15,Sobolevo,54.4299,31.8996,19.96,97,100,14.9
16,Lüderitz,-26.6481,15.1594,65.19,52,0,21.52
17,New Norfolk,-42.7826,147.0587,68.16,62,81,4.0
18,Province of Trapani,37.8333,12.6667,56.64,88,0,20.71
19,Kutum,14.2,24.6667,49.91,43,0,9.91
20,Port Alfred,-33.5906,26.891,68.0,79,19,1.01
21,Puerto Ayora,-0.7393,-90.3518,78.01,92,33,5.99
22,Leningradskiy,69.3833,178.4167,-22.49,85,100,7.31
23,Faanui,-16.4833,-151.75,81.39,65,100,5.03
24,Boussé,12.6606,-1.8922,71.6,20,0,6.91
25,Port Elizabeth,-33.918,25.5701,64.4,72,0,2.3
26,Bredasdorp,-34.5322,20.0403,64.0,88,87,6.4
27,Lubango,-14.9172,13.4925,61.3,78,100,3.87
28,Muros,42.7762,-9.0603,55.99,81,10,18.99
29,Jamestown,42.097,-79.2353,18.79,79,90,8.05
30,Luena,-11.7833,19.9167,59.63,96,64,2.62
31,Qaanaaq,77.484,-69.3632,-13.52,63,0,5.32
32,Zaysan,47.4667,84.8667,5.49,92,85,2.93
33,Avarua,-21.2078,-159.775,80.6,83,20,1.14
34,Vaini,-21.2,-175.2,80.6,89,90,8.05
35,Karratha,-20.7377,116.8463,92.12,48,27,12.73
36,Vilyuysk,63.7553,121.6247,-40.49,78,100,2.77
37,Norman Wells,65.282,-126.8329,-31.0,75,75,2.3
38,Ahipara,-35.1667,173.1667,66.99,64,58,5.46
39,Vao,-22.6667,167.4833,76.03,75,22,19.98
40,Grants,35.1473,-107.8514,32.0,80,90,28.77
41,Otane,-39.8833,176.6333,61.0,64,84,10.38
42,Nanortalik,60.1432,-45.2371,32.83,89,99,8.84
43,Rome,43.2128,-75.4557,4.84,67,90,3.44
44,Mataura,-46.1927,168.8643,67.05,45,0,2.13
45,Havre-St-Pierre,50.2334,-63.5986,6.8,66,1,10.36
46,Pevek,69.7008,170.3133,-29.92,85,28,4.47
47,Makakilo City,21.3469,-158.0858,72.95,68,1,6.91
48,Roald,62.5833,6.1333,31.1,80,90,9.22
49,Atuona,-9.8,-139.0333,78.62,78,14,19.53
50,Sur,22.5667,59.5289,71.46,37,0,7.05
51,Tommot,58.9564,126.2925,-28.21,79,100,0.87
52,Dikson,73.5069,80.5464,-34.47,84,94,7.94
53,Rikitea,-23.1203,-134.9692,79.41,77,35,12.62
54,Kavieng,-2.5744,150.7967,84.27,77,86,14.2
55,Washougal,45.5826,-122.3534,40.95,81,90,5.75
56,Marawi,7.9986,124.2928,82.0,82,87,8.01
57,Lakota,5.8528,-5.6883,72.57,93,58,0.72
58,Seybaplaya,19.65,-90.6667,69.98,75,20,12.3
59,Berlevåg,70.8578,29.0864,26.29,96,100,21.72
60,Busselton,-33.65,115.3333,88.0,36,0,5.01
61,Lompoc,34.6391,-120.4579,41.9,93,1,3.44
62,Nikolskoye,59.7035,30.7861,28.58,93,90,6.71
63,San Patricio,28.017,-97.5169,66.06,77,90,11.5
64,Belyy Yar,53.6039,91.3903,24.8,50,0,15.66
65,Albany,42.6001,-73.9662,6.08,77,2,8.12
66,Rāvar,31.2656,56.8055,63.0,28,18,33.29
67,Kapaa,22.0752,-159.319,72.61,83,75,18.41
68,Mount Gambier,-37.8333,140.7667,64.4,72,90,13.8
69,High Prairie,55.4334,-116.4858,1.4,85,0,6.91
70,Airai,-8.9266,125.4092,68.58,89,100,5.88
71,Saint George,37.1041,-113.5841,37.51,93,90,6.91
72,Bathsheba,13.2167,-59.5167,77.0,73,40,13.8
73,Tasiilaq,65.6145,-37.6368,17.6,38,90,18.41
74,Vanavara,60.34,102.2797,-34.02,80,57,8.75
75,Petropavlovsk-Kamchatskiy,53.0452,158.6483,24.8,54,20,8.95
76,Cherskiy,68.75,161.3,-36.06,83,5,1.77
77,Kaili,-3.4626,120.2147,78.57,78,99,2.71
78,East London,-33.0153,27.9116,68.0,83,20,9.22
79,Kidal,18.4411,1.4078,59.83,29,0,14.27
80,Mar del Plata,-38.0023,-57.5575,63.84,82,74,3.44
81,Egvekinot,66.3167,-179.1667,-22.81,84,0,7.0
82,Lakes Entrance,-37.8811,147.981,73.0,70,97,1.01
83,Pombas,17.1503,-25.0201,71.6,78,85,18.41
84,Beirut,33.8889,35.4944,48.13,66,40,5.75
85,Hobart,-42.8794,147.3294,69.85,72,75,23.02
86,Sironj,24.1,77.7,64.92,27,0,5.57
87,Payo,-3.7508,103.6372,80.2,83,100,5.03
88,Cortland,42.6001,-76.083,13.21,85,90,4.07
89,Huai'an,33.5886,119.0192,53.82,43,4,7.49
90,Bambous Virieux,-20.3428,57.7575,84.58,74,40,11.5
91,Iqaluit,63.7506,-68.5145,-11.09,70,1,26.46
92,Saskylakh,71.9167,114.0833,-37.52,75,0,3.87
93,Kandrian,-6.2167,149.55,88.77,63,81,15.08
94,Tual,-5.6667,132.75,83.52,77,48,14.74
95,Mehamn,71.0357,27.8492,26.1,96,100,20.83
96,Bandarbeyla,9.4942,50.8122,75.04,69,24,13.58
97,Chokurdakh,70.6333,147.9167,-28.53,85,100,8.63
98,Tamboril,19.4854,-70.611,68.0,94,75,4.61
99,Tuyen Quang,21.8233,105.2181,66.92,64,81,3.31
100,Torbay,47.6666,-52.7314,26.33,93,90,25.32
101,Iskateley,67.6803,53.1512,-7.62,88,100,16.64
102,Castro,-24.7911,-50.0119,62.69,94,100,3.27
103,Constitución,-35.3333,-72.4167,60.37,95,100,9.98
104,Yellowknife,62.456,-114.3525,-20.88,76,1,5.75
105,Carnarvon,-24.8667,113.6333,109.4,18,0,13.8
106,George Town,5.4112,100.3354,88.66,51,20,5.75
107,Bosaso,11.2842,49.1816,75.2,69,75,11.5
108,Seddon,-37.8068,144.8916,69.3,73,75,17.27
109,Severo-Kuril'sk,50.6789,156.125,24.57,92,100,21.59
110,Dingle,10.9995,122.6711,76.48,86,100,15.93
111,Pyaozerskiy,65.8333,31.1667,10.53,95,100,10.25
112,Tuktoyaktuk,69.4541,-133.0374,-36.4,67,1,3.22
113,Rawson,-43.3002,-65.1023,56.73,53,0,4.21
114,Mazamet,43.49,2.373,45.7,81,0,8.05
115,Olafsvik,64.8945,-23.7142,28.78,98,100,18.43
116,Upernavik,72.7868,-56.1549,-8.9,84,0,10.96
117,Olbia,40.9214,9.4856,57.2,54,0,25.32
118,Wajima,37.4,136.9,35.6,55,75,12.66
119,Arraial do Cabo,-22.9661,-42.0278,76.53,85,49,24.05
120,Tiksi,71.6872,128.8694,-29.34,85,100,5.23
121,Dourados,-22.2211,-54.8056,70.61,96,100,6.35
122,Serebryansk,49.6925,83.2892,5.0,85,75,2.24
123,Hermanus,-34.4187,19.2345,64.0,88,64,5.32
124,Cabo San Lucas,22.8909,-109.9124,66.34,88,15,10.29
125,Ranong,9.9658,98.6348,89.6,55,20,8.05
126,Yulara,-25.2406,130.9889,95.0,29,98,17.27
127,Tyul'gan,52.3405,56.166,20.37,98,96,5.86
128,Hauterive,46.0901,3.4459,45.59,81,75,3.44
129,Peniche,39.3558,-9.3811,56.97,88,92,13.0
130,Hualmay,-11.0964,-77.6139,70.38,78,84,5.17
131,Klaksvík,62.2266,-6.589,32.0,69,20,4.61
132,Hithadhoo,-0.6,73.0833,82.06,76,65,13.56
133,Coquimbo,-29.9533,-71.3436,60.8,94,20,6.91
134,Cockburn Town,21.4612,-71.1419,72.01,71,7,19.48
135,Cidreira,-30.1811,-50.2056,74.86,89,11,4.99
136,Mahébourg,-20.4081,57.7,84.2,74,40,11.5
137,Kahului,20.8947,-156.47,68.04,78,40,13.8
138,Pedregal,8.3667,-82.4333,74.97,59,80,6.78
139,Saint-Philippe,-21.3585,55.7679,78.4,51,0,10.36
140,Bonavista,48.6499,-53.1147,24.96,93,100,5.75
141,Lebu,-37.6167,-73.65,55.63,91,69,5.44
142,Kuliyapitiya,7.4688,80.0401,80.6,78,40,9.22
143,Qandala,11.472,49.8728,72.9,67,34,3.83
144,Paita,-5.0892,-81.1144,75.31,71,39,10.49
145,Wanning,18.8003,110.3967,71.22,79,64,13.22
146,Umm Kaddadah,13.6017,26.6876,58.08,33,10,16.35
147,High Level,58.5169,-117.136,-18.4,83,1,2.3
148,Cerignola,41.264,15.9005,48.83,93,2,6.91
149,Hilo,19.7297,-155.09,67.64,83,75,4.61
150,Moyale,3.5167,39.0584,70.72,28,15,9.06
151,Geraldton,-28.7667,114.6,100.4,16,0,24.16
152,Yerbogachën,61.2767,108.0108,-37.01,79,54,7.43
153,Saint Paul Harbor,57.79,-152.4072,33.8,60,1,6.91
154,Eureka,40.8021,-124.1637,45.9,79,100,3.0
155,Praia da Vitória,38.7333,-27.0667,60.46,82,20,18.68
156,Padang,-0.9492,100.3543,86.0,66,69,6.91
157,Porto Santo,33.072,-16.3415,60.8,94,75,8.05
158,Kimbe,-5.5502,150.1429,83.48,77,99,8.05
159,Katsuura,35.1333,140.3,46.22,27,20,13.8
160,Kapoeta,4.7717,33.5903,82.58,34,96,12.33
161,Piaçabuçu,-10.4056,-36.4344,77.32,82,96,7.92
162,Ngama,11.7833,17.1667,66.07,25,8,10.2
163,Tyret’ Pervaya,53.6703,102.3106,7.65,94,100,4.07
164,Cap Malheureux,-19.9842,57.6142,84.99,71,0,7.0
165,Huarmey,-10.0681,-78.1522,70.79,75,97,6.69
166,Hermiston,45.8404,-119.2895,34.99,80,1,5.75
167,Jiaxing,30.7522,120.75,57.72,33,0,4.47
168,Gizo Government Station,-8.103,156.8419,86.74,71,25,14.81
169,Luganville,-15.5333,167.1667,83.32,76,80,11.52
170,Jacmel,18.2342,-72.5347,75.2,64,1,9.22
171,Daru,-9.0763,143.2092,79.74,86,99,11.95
172,Ilulissat,69.2167,-51.1,1.4,55,0,8.05
173,Bethel,41.3712,-73.414,10.65,52,1,9.22
174,Velsk,61.0701,42.0983,14.16,97,100,5.79
175,Barcelona,41.3888,2.159,53.92,93,0,10.36
176,Contamana,-7.3333,-75.0167,73.83,94,55,2.04
177,Thompson,55.7435,-97.8558,10.4,85,90,4.61
178,Soe,-9.8607,124.284,76.66,82,100,8.52
179,Asău,46.4333,26.4,41.0,58,100,5.41
180,Port Hawkesbury,45.6169,-61.3485,26.87,74,40,11.5
181,Lorengau,-2.0226,147.2712,83.41,81,100,10.27
182,Nivala,63.9167,24.9667,12.0,90,100,7.67
183,Morón,-34.6534,-58.6198,73.44,86,0,3.22
184,Fort-Shevchenko,44.5086,50.263,34.16,87,98,10.4
185,Capaci,38.1711,13.2393,61.5,72,20,17.27
186,Qurayyat,31.3318,37.3428,44.6,65,40,11.5
187,Mayo,38.8876,-76.5119,27.55,50,90,6.91
188,Charters Towers,-20.1,146.2667,91.74,27,91,10.56
189,Hay River,60.8156,-115.7999,-22.92,76,36,4.61
190,Oranjemund,-28.55,16.4333,59.97,90,5,10.2
191,Oktyabr'skoye,43.0645,44.7417,35.31,93,90,4.47
192,Kalabo,-14.97,22.6814,67.6,94,100,3.91
193,Shambu,9.5667,37.1,55.6,47,93,2.24
194,Cariré,-3.9506,-40.4733,75.06,83,98,3.18
195,Houma,29.5958,-90.7195,47.77,93,1,3.44
196,Mungwi,-10.1732,31.3694,64.24,92,100,0.74
197,Ponta do Sol,32.6667,-17.1,52.36,75,56,1.99
198,São Gabriel da Cachoeira,-0.1303,-67.0892,74.68,80,83,1.19
199,Srednekolymsk,67.45,153.6833,-34.4,83,99,3.29
200,Songea,-10.6833,35.65,66.65,91,87,2.46
201,Fortuna,40.5982,-124.1573,46.2,87,90,13.8
202,Yangi Marg`ilon,40.4272,71.7189,39.2,41,75,2.55
203,Adrar,20.5022,-10.0711,60.15,30,8,9.73
204,Saldanha,-33.0117,17.9442,66.83,76,84,9.15
205,Zliten,32.4674,14.5687,62.1,50,0,11.12
206,Ongole,15.5,80.05,81.7,58,99,6.29
207,Najrān,17.4924,44.1277,64.4,27,0,2.3
208,Bambanglipuro,-7.95,110.2833,84.54,68,100,8.68
209,Teguise,29.0605,-13.564,59.0,88,0,8.05
210,Kīhei,20.785,-156.4656,67.73,78,40,13.8
211,Abhā,18.2164,42.5053,53.78,26,0,2.71
212,Fougamou,-1.2154,10.5838,73.02,95,100,3.04
213,Yar-Sale,66.8333,70.8333,-37.88,81,40,5.55
214,Guerrero Negro,27.9769,-114.0611,59.23,70,4,14.65
215,Kailua,21.4022,-157.7394,72.37,73,40,14.97
216,Tuatapere,-46.1333,167.6833,63.36,55,0,6.82
217,Saint Anthony,45.0205,-93.218,24.39,58,90,11.5
218,Zapolyarnyy,69.4154,30.8136,15.8,92,90,1.14
219,Corpus Christi,27.8006,-97.3964,66.4,77,90,11.5
220,Cairns,-16.9167,145.7667,87.4,62,98,16.11
221,Rocha,-34.4833,-54.3333,66.13,68,80,4.36
222,Quilmaná,-12.95,-76.3833,72.63,65,96,2.64
223,Jega,12.2175,4.3792,67.05,24,0,12.33
224,Ambon City,-3.6954,128.1814,89.6,62,40,6.91
225,Port Hardy,50.6996,-127.4199,41.7,87,90,19.57
226,Aklavik,68.2191,-135.0107,-30.82,75,87,2.3
227,San Quintín,30.4833,-115.95,55.13,77,1,5.17
228,Lavrentiya,65.5833,-171.0,-18.76,81,0,9.44
229,Raudeberg,61.9875,5.1352,33.01,89,94,16.6
230,Longyearbyen,78.2186,15.6401,1.4,46,20,32.21
231,Alofi,-19.0595,-169.9187,77.0,94,100,4.61
232,Nome,64.5011,-165.4064,-5.8,65,1,21.85
233,Øksfjord,70.2396,22.3479,13.95,67,90,3.44
234,Salinópolis,-0.6136,-47.3561,80.13,81,88,12.95
235,Celestún,20.8667,-90.4,68.18,79,8,13.51
236,Presidencia Roque Sáenz Peña,-26.7852,-60.4388,78.01,86,0,1.99
237,Sol'-Iletsk,51.1631,54.9918,27.79,98,98,5.88
238,Tura,25.5198,90.2201,71.98,30,0,4.09
239,Pangnirtung,66.1451,-65.7125,-9.4,77,1,5.75
240,Tessalit,20.1986,1.0114,58.89,29,0,11.48
241,Arlit,18.7369,7.3853,54.73,34,0,2.64
242,Pitimbu,-7.4706,-34.8086,77.0,94,40,6.91
243,Fairbanks,64.8378,-147.7164,-8.86,77,1,2.75
244,Empalme,27.9667,-110.8167,56.46,70,6,1.01
245,Portland,45.5234,-122.6762,40.77,81,90,5.75
246,Elko,41.0002,-115.5012,29.62,83,86,1.99
247,Esperance,-33.8667,121.9,80.6,32,0,12.66
248,Dwārka,22.2394,68.9678,71.11,33,27,13.02
249,Naliya,23.2667,68.8333,72.75,22,0,8.39
250,Erzin,36.9559,36.2,39.99,83,2,11.99
251,Tautira,-17.7333,-149.15,82.2,65,90,2.3
252,Kieta,-6.2167,155.6333,84.38,74,45,14.34
253,Fort Nelson,58.8053,-122.7002,-18.4,76,40,2.3
254,Shache,38.4167,77.2406,31.57,75,0,2.1
255,Maniitsoq,65.4167,-52.9,18.88,75,0,6.17
256,Dunmore East,52.1514,-6.9861,43.27,95,100,11.01
257,Lagoa,39.05,-27.9833,60.4,84,100,20.15
258,Shenjiamen,29.9576,122.298,49.15,67,0,11.88
259,Victoria Point,-27.5833,153.3,84.25,59,52,3.0
260,Evensk,61.95,159.2333,0.36,85,100,15.77
261,Port Hedland,-20.3167,118.5667,96.8,46,40,17.27
262,Bengkulu,-3.8004,102.2655,85.55,62,98,7.0
263,Isla Vista,34.4133,-119.861,44.1,93,1,3.44
264,Kavaratti,10.5669,72.642,80.78,71,14,9.26
265,Sioux Lookout,50.1001,-91.917,6.8,72,75,4.61
266,Hong Kong,22.2855,114.1577,63.64,64,0,3.0
267,Jardim,-21.4803,-56.1381,71.29,95,100,4.7
268,Chapada dos Guimarães,-15.4606,-55.7497,75.2,83,75,8.05
269,Mergen,49.1833,125.2167,-15.32,83,2,2.82
270,Makkah al Mukarramah,21.4267,39.8261,64.78,40,0,9.98
271,São Filipe,14.8961,-24.4956,74.21,56,98,9.48
272,Narsaq,60.9167,-46.05,42.8,31,75,33.38
273,Sabzawār,36.2126,57.6819,46.4,34,40,6.91
274,Esmeralda,21.8525,-78.1169,66.2,72,75,10.36
275,Altay,47.8667,88.1167,11.8,81,17,0.27
276,Chui,-33.6971,-53.4616,67.15,94,6,1.21
277,Los Llanos de Aridane,28.6585,-17.9182,62.24,88,20,9.22
278,Tazovsky,67.4667,78.7,-38.11,79,0,3.27
279,São João da Barra,-21.6403,-41.0511,76.64,83,31,19.39
280,Taoudenni,22.6783,-3.9836,63.03,29,0,9.89
281,La Ronge,55.1001,-105.2842,8.6,85,73,3.44
282,Kyra,49.5776,111.9753,-0.71,82,38,3.0
283,Cravo Norte,6.3017,-70.2041,78.26,57,37,5.28
284,Longonjo,-12.9067,15.2533,58.48,80,86,1.48
285,Irtyshskiy,58.3333,68.1333,0.5,93,100,11.23
286,Datong,40.0936,113.2914,32.18,73,0,12.62
287,Comodoro Rivadavia,-45.8667,-67.5,48.2,76,0,1.14
288,Urgut,39.4022,67.2431,51.8,16,100,16.11
289,North Shore,-36.8,174.75,69.46,57,0,3.0
290,Anadyr,64.75,177.4833,-20.09,69,0,6.71
291,Bogorodskoye,56.55,37.8833,20.41,97,93,9.19
292,Kudahuvadhoo,2.6708,72.8944,80.89,79,0,14.14
293,Taloqan,36.7361,69.5345,48.72,43,32,5.97
294,Kayseri Province,38.737,35.4968,19.4,86,75,3.44
295,Senneterre,48.3835,-77.2328,1.4,85,90,11.5
296,Kostino,58.9097,53.2691,22.42,97,100,8.03
297,Huaihua,27.5494,109.9592,45.81,87,100,1.25
298,Namatanai,-3.6667,152.4333,83.79,78,75,13.06
299,Liverpool,53.4106,-2.9779,39.06,87,90,20.71
300,Dudinka,69.4058,86.1778,-37.53,77,0,3.02
301,Lima,-12.0432,-77.0282,70.59,83,0,10.36
302,Djibo,14.1022,-1.6306,66.16,23,51,9.73
303,Forsytheganj,52.6333,29.7333,21.16,96,100,10.4
304,Cayenne,4.9333,-52.3333,75.2,100,75,12.97
305,Soldotna,60.4878,-151.0583,14.4,92,75,3.44
306,San Cristobal,7.7669,-72.225,63.5,74,43,1.72
307,Beyneu,45.3167,55.2,34.68,87,36,5.53
308,Chicama,-7.8447,-79.1469,72.9,68,94,4.52
309,Taltal,-25.4,-70.4833,63.12,75,5,3.38
310,Gazojak,41.1875,61.4036,44.89,53,100,5.35
311,Chhindwāra,22.0667,78.9333,69.91,21,0,8.52
312,Langarūd,37.197,50.1535,49.03,100,75,4.61
313,Barra do Garças,-15.89,-52.2567,73.36,87,100,1.63
314,Hofn,64.2539,-15.2082,33.48,78,72,6.2
315,Ternate,0.8,127.4,83.39,72,33,10.67
316,Rovaniemi,66.5,25.7167,6.8,85,90,9.22
317,Boa Vista,2.8197,-60.6733,80.6,65,0,10.36
318,Avera,33.194,-82.5271,30.22,93,1,4.59
319,Zaragoza,41.6561,-0.8773,57.2,67,40,2.3
320,Kaitangata,-46.2817,169.8464,57.99,67,22,8.01
321,Inírida,3.8653,-67.9239,75.61,78,91,1.32
322,Léo,11.1,-2.1,70.16,22,40,9.15
323,Provideniya,64.3833,-173.3,-7.89,82,2,4.99
324,Maragogi,-9.0122,-35.2225,77.56,82,100,10.33
325,Hotonj,43.8947,18.3728,35.6,100,75,1.14
326,Reconquista,-29.15,-59.65,76.82,70,24,8.1
327,Walvis Bay,-22.9575,14.5053,66.07,82,10,8.05
328,Paamiut,61.994,-49.6678,35.4,77,93,10.76
329,Ruidoso,33.3317,-105.673,45.23,49,20,28.77
330,Bohuslav,49.5494,30.8744,24.19,95,96,6.33
331,Pimenta Bueno,-11.6725,-61.1936,72.68,96,99,3.65
332,Ust'-Kan,50.9276,84.761,21.65,90,49,2.33
333,Archidona,37.0965,-4.3887,57.7,52,60,5.99
334,Wellsford,-36.2833,174.5167,68.36,54,31,3.0
335,Sola,-13.8833,167.55,81.07,84,100,18.84
336,Shaoyang,27.2315,111.4525,50.11,72,100,2.82
337,Muisne,0.6,-80.0333,77.04,85,64,1.36
338,Kipini,-2.5257,40.5262,80.6,74,1,5.75
339,Kayerkan,69.3497,87.7602,-31.88,69,2,1.48
340,Trincomalee,8.5711,81.2335,80.06,81,13,13.58
341,Sandy Bay,-42.913,147.3532,69.69,72,75,23.02
342,Koceljeva,44.4736,19.8117,42.57,93,0,5.75
343,Bulgan,48.8125,103.5347,21.87,86,32,15.01
344,Zhigansk,66.7697,123.3711,-40.31,79,100,1.92
345,Khor,47.8861,134.9464,-11.79,87,60,6.02
346,Meadow Lake,34.8014,-106.5436,42.58,52,40,9.22
347,Ribeira Grande,38.5167,-28.7,62.17,89,98,23.33
348,Astoria,46.1879,-123.8313,39.36,93,90,9.22
349,Margate,51.3813,1.3862,45.12,90,100,5.99
350,Kadnikov,59.5022,40.338,22.23,97,100,8.9
351,Chilchota,19.85,-102.1333,55.99,77,91,1.01
352,Yeppoon,-23.1333,150.7333,89.6,45,15,12.66
353,Saint-Augustin,51.226,-58.6502,12.78,91,66,12.91
354,Juegang,32.3174,121.1855,52.25,45,0,6.22
355,Maicao,11.3832,-72.2432,74.28,79,27,8.81
356,Kiama,-34.6833,150.8667,81.25,78,62,10.0
357,Pec,42.6591,20.2883,35.6,87,90,1.14
358,Kruisfontein,-34.0033,24.7314,61.0,89,0,5.28
359,Mareeba,-17.0,145.4333,87.39,62,92,16.11
360,Pine Bluff,34.2284,-92.0032,46.78,76,20,9.01
361,Ixtapa,20.7,-105.2,70.41,88,40,2.57
362,Harper,4.375,-7.7169,78.22,86,19,5.93
363,Parambu,-6.2111,-40.6944,70.93,86,100,2.66
364,Bilma,18.6853,12.9164,56.66,32,34,5.95
365,Aykhal,66.0,111.5,-35.3,81,99,8.95
366,Dali,25.7,100.1833,58.46,34,0,8.95
367,Ketchikan,55.3422,-131.6461,35.6,87,90,8.05
368,Harlingen,26.1906,-97.6961,63.16,94,1,6.91
369,Ajdabiya,30.7554,20.2263,56.98,66,6,11.61
370,Hasaki,35.7333,140.8333,44.6,23,20,19.57
371,Boffa,10.1667,-14.0333,67.95,90,0,2.46
372,Surab,28.4914,66.2585,55.08,22,4,0.72
373,Eyl,7.9803,49.8164,74.86,70,30,15.41
374,Saint-Paul,-21.0096,55.2707,73.99,81,3,3.0
375,Botou,38.0667,116.5667,51.13,36,6,9.42
376,Broome,42.2506,-75.833,8.69,85,90,5.75
377,Vila Franca do Campo,37.7167,-25.4333,58.48,94,40,5.75
378,Russell,32.3502,-85.1999,34.34,86,1,1.36
379,Hobyo,5.3505,48.5268,77.52,70,51,18.16
380,Dongkan,33.9997,119.8308,52.56,45,31,6.13
381,Mahabalipuram,12.6264,80.1722,84.2,58,20,8.05
382,Schwäbisch Hall,49.1113,9.7391,41.04,93,90,14.97
383,Lucapa,-8.4192,20.7447,63.88,99,100,1.66
384,Shiloh,38.5614,-89.8973,31.35,80,1,6.91
385,Kadyy,57.787,43.1903,23.81,98,99,9.26
386,Saint-Joseph,-21.3667,55.6167,78.22,51,0,10.36
387,Chake Chake,-5.2459,39.7666,81.28,77,63,9.13
388,Penzance,50.1186,-5.5371,48.99,100,75,18.41
389,Belmonte,-15.8631,-38.8828,78.8,73,20,11.5
390,Ishigaki,24.3448,124.1572,66.2,45,20,9.22
391,Quatre Cocos,-20.2078,57.7625,84.09,74,40,11.5
392,Kadoma,34.7333,135.5833,46.76,39,40,6.91
393,Husavik,66.0449,-17.3389,24.8,86,90,13.8
394,Manono,-7.3,27.4167,69.49,93,93,2.01
395,Cedar City,37.6775,-113.0619,30.2,80,40,11.5
396,Kharp,66.8014,65.8081,-36.67,80,97,2.26
397,Rūdbār,30.15,62.6,61.68,24,33,3.02
398,Hambantota,6.1241,81.1185,82.4,83,40,6.91
399,Kargat,55.1956,80.2811,-5.94,89,85,9.33
400,Alekseyevsk,57.8406,108.3492,-29.47,79,41,4.68
401,Manokwari,-0.8667,134.0833,83.08,65,94,3.85
402,Mezen',65.8522,44.24,9.75,95,100,10.4
403,Meulaboh,4.1363,96.1285,85.46,61,89,4.65
404,Champerico,14.3,-91.9167,63.93,93,67,4.23
405,Rotterdam,51.9225,4.4792,33.3,80,75,13.8
406,Kashary,49.04,41.0056,35.06,95,100,20.94
407,Pedernales,18.0384,-71.744,74.64,66,2,2.93
408,Sitka,57.0531,-135.33,39.2,48,90,14.97
409,Touros,-5.1989,-35.4608,77.0,83,40,4.61
410,Samarai,-10.6167,150.6667,84.11,74,100,6.53
411,Waingapu,-9.6567,120.2641,82.27,77,100,15.17
412,Alice Town,25.7167,-79.3,67.69,63,75,13.22
413,Utinga,-5.8172,-35.3954,77.76,83,40,4.61
414,Verkhnyaya Inta,65.9811,60.3094,-2.15,85,100,17.34
415,Puri,19.8,85.85,75.2,64,1,5.75
416,Thessalon,46.2501,-83.5666,6.8,92,1,6.49
417,Karasjok,69.4719,25.5112,8.6,85,75,3.44
418,Dawlatabad,36.4141,64.9053,54.57,38,59,5.79
419,Tupik,54.4253,119.9327,-23.31,79,42,0.47
420,Mount Isa,-20.7333,139.5,100.4,23,90,9.22
421,Kununurra,-15.7667,128.7333,87.8,79,40,16.11
422,Ballina,-28.8667,153.5667,81.21,69,36,12.66
423,Imbituba,-28.24,-48.6703,75.2,94,75,10.36
424,Camacha,33.0833,-16.3333,60.8,88,75,10.36
425,Knysna,-34.0363,23.0471,62.6,77,20,3.44
426,Nagorsk,59.3172,50.8078,24.48,98,100,8.57
427,Korem,12.5058,39.5228,51.93,48,0,2.13
428,Vila Velha,-20.3297,-40.2925,76.48,83,20,5.75
429,Sambava,-14.2667,50.1667,79.63,79,12,3.78
430,Salinas,36.6777,-121.6555,43.88,81,1,2.15
431,Nemuro,43.3236,145.575,30.2,69,75,12.66
432,Yuncheng,35.0231,110.9928,49.24,39,100,8.68
433,Byron Bay,-28.65,153.6167,81.63,69,37,12.66
434,Polovinnoye,54.7914,65.9864,16.48,94,100,9.84
435,Richards Bay,-28.783,32.0377,74.91,84,74,3.09
436,Bubaque,11.2833,-15.8333,78.13,63,0,8.72
437,Oriximiná,-1.7656,-55.8661,73.85,94,75,2.68
438,Dulce Grande,23.0,-102.1667,53.42,58,34,9.48
439,La Rioja,42.25,-2.5,50.0,81,90,11.5
440,Bereda,43.2686,-7.5406,48.0,84,65,13.0
441,Awka,6.2101,7.0741,74.37,92,76,1.16
442,Montrose,38.4166,-108.2673,33.69,65,96,5.01
443,Ashquelon,31.6693,34.5715,48.38,76,40,11.5
444,Ancud,-41.8697,-73.8203,45.93,81,0,5.75
445,Ferrol,43.4832,-8.2369,54.01,68,42,15.99
446,Laranjeiras do Sul,-25.4078,-52.4161,64.26,100,100,3.4
447,Isangel,-19.55,169.2667,81.37,70,19,18.12
448,Maningrida,-12.0667,134.2667,87.78,65,36,15.37
449,Ascension,30.2169,-90.9001,44.65,81,1,4.61
450,Dzaoudzi,-12.7887,45.2699,86.0,66,75,6.91
451,Yatou,37.15,122.3833,41.94,62,0,9.8
452,Kandry,54.5667,54.1167,23.49,97,92,5.28
453,Broken Hill,-31.95,141.4333,86.0,32,7,14.97
454,Yining,29.0361,114.5636,52.72,54,100,1.36
455,Haines Junction,60.7522,-137.5108,-14.8,76,100,2.3
456,Abnūb,27.2696,31.1511,41.0,65,0,1.74
457,Yashkino,55.8736,85.4265,-17.84,69,0,6.71
458,Erciş,39.0287,43.3586,32.0,59,40,3.44
459,Tinde,-3.8833,33.2,66.58,90,95,1.72
460,Kautokeino,69.0125,23.0412,-2.6,91,99,6.02
461,Tutóia,-2.7619,-42.2744,79.45,84,19,12.48
462,Madhipura,25.9167,86.7833,64.44,38,0,11.07
463,Seoul,37.5683,126.9778,38.08,52,20,12.66
464,Blagoyevo,63.3667,47.9167,20.75,97,100,7.54
465,Opunake,-39.4556,173.8583,64.53,47,0,14.0
466,Sept-Îles,50.2001,-66.3821,6.3,66,0,10.36
467,Mikuni,36.2171,136.1519,42.8,52,40,5.75
468,Neuquén,-38.9516,-68.0591,62.6,82,0,4.85
469,Esim,4.8699,-2.2405,77.85,83,1,6.76
470,San Rafael,-34.6177,-68.3301,59.7,86,100,14.09
471,Ocós,14.5094,-92.1933,63.73,90,32,2.68
472,Dunedin,-45.8742,170.5036,55.0,72,15,13.0
473,Kampot,10.6167,104.1833,84.96,48,0,11.5
474,Deep River,46.1001,-77.4995,5.0,66,90,3.44
475,Saint-Honoré,48.5334,-71.0824,2.07,72,92,10.36
476,Goya,-29.14,-59.2626,78.15,71,7,6.71
477,Laas,46.6166,10.7002,27.7,93,40,5.75
478,Hamilton,39.1834,-84.5333,23.63,68,75,5.75
479,Campana,-34.1687,-58.9591,67.3,94,0,2.3
480,Ust-Maya,60.4167,134.5333,-39.46,76,94,0.81
481,Bač,45.3919,19.2367,37.33,100,100,4.61
482,Phetchaburi,12.9667,99.5833,93.0,39,100,7.52
483,Canto do Buriti,-8.11,-42.9444,71.58,85,88,1.25
484,Bundaberg,-24.85,152.35,83.25,61,75,14.97
485,Tres Arroyos,-38.3739,-60.2798,56.61,77,65,7.07
486,Mayor Pablo Lagerenza,-19.9309,-60.7718,77.41,76,92,8.7
487,Umba,66.6871,34.3429,8.85,95,100,11.56
488,Luís Correia,-2.8792,-41.6669,78.49,84,75,12.95
489,Staryy Nadym,65.6118,72.6842,-40.9,79,25,4.79
490,San Juan,-31.5375,-68.5364,80.47,31,0,21.03
491,Dalbandin,28.8947,64.4101,62.13,20,1,4.07
492,Pacific Grove,36.6177,-121.9166,45.18,87,1,3.44
493,General Roca,-39.0333,-67.5833,62.6,82,0,4.99
494,Urusha,54.05,122.9,-19.84,79,29,2.19
495,Santa Rosalía,27.3167,-112.2833,58.75,71,0,6.6
496,Marabu,4.4148,114.0089,88.36,70,40,8.05
497,Ulaangom,49.9811,92.0667,2.43,90,66,3.2
498,Anantapur,14.6833,77.6,82.71,30,71,8.66
499,Vardø,70.3705,31.1107,26.38,97,100,21.77
500,Korla,41.7597,86.1469,29.89,75,0,7.11
501,Nyrob,60.733,56.7202,3.83,91,100,9.84
502,Strezhevoy,60.7333,77.5889,-40.0,74,90,4.47
503,Montluçon,46.3333,2.6,45.0,95,100,5.01
504,Tabou,4.423,-7.3528,77.74,87,22,6.08
505,Moerai,-22.4333,-151.3333,81.16,70,23,12.64
506,Stornoway,58.2093,-6.3865,37.4,70,20,9.22
507,Berdigestyakh,62.0989,126.6992,-39.73,77,100,0.67
508,Kompaniyivka,48.2511,32.208,28.45,95,100,6.22
509,Miyako,39.6367,141.9525,32.76,81,2,23.89
510,Shimoda,34.6667,138.95,44.98,46,20,3.44
511,Laguna,38.421,-121.4238,41.9,87,1,3.62
512,Alice,27.7523,-98.0697,67.3,72,90,11.5
513,Manaus,-3.1019,-60.025,74.32,94,40,2.3
514,Plácido de Castro,-10.3353,-67.1856,73.27,94,78,2.06
515,Tiznit Province,29.5833,-9.5,57.16,45,0,3.11
516,Okakarara,-20.5833,17.4333,68.67,77,88,2.46
517,Kuala Pilah,2.7389,102.2487,85.6,66,20,11.5
518,Ouadda,8.0777,22.4007,69.46,22,62,8.66
519,Teleneşti,47.4997,28.3656,32.0,93,100,10.36
520,Ilkal,15.9667,76.1333,80.55,37,0,9.91
521,Vasai,19.47,72.8,82.4,36,19,3.44
522,Vaitape,-16.5167,-151.75,81.41,65,100,4.99
523,Gempol,-7.1827,111.6137,81.32,82,100,17.29
524,Andenes,69.3143,16.1194,23.36,68,75,12.66
525,Ulladulla,-35.35,150.4667,83.43,65,40,8.05
526,Vestmannaeyjar,63.4427,-20.2734,35.13,84,100,9.08
527,Mariental,-24.6333,17.9667,73.11,21,17,6.04
528,Kiunga,-6.1219,141.2906,77.18,96,97,4.14
529,Palmer,42.1584,-72.3287,7.75,66,1,6.15
530,Dolores,-36.3132,-57.6792,67.98,46,53,6.2
531,Turukhansk,65.8167,87.9833,-28.75,77,82,5.57
532,Leshukonskoye,64.8989,45.7622,14.4,96,100,8.93
533,Great Yarmouth,52.6083,1.7305,39.4,87,90,13.8
534,Bilibino,68.0546,166.4372,-25.33,80,0,4.54
535,Tabuk,17.4189,121.4443,70.43,78,92,6.89
536,Ust'-Kulom,61.6864,53.6902,16.43,96,100,11.59
